zip,zid,latitude,longitude,cost/rent,status,address,bed,bath,area,zestimate,Type:,Year built:,Heating:,Cooling:,Parking:,Lot:,Price/sqft:,SaleHistory
75206,2090403203,32.835386,-96.776163,"$547,200",New construction,"Buildable plan: Home D, 5300 Glencoe Park, Dallas, TX 75206",3,2,1847,573451,Single Family,2019,No Data,No Data,No Data,No Data,$296,"[{'date': '4/20/2019', 'event': 'Price change', 'price': '$547,200(-7.9%)'}, {'date': '10/19/2018', 'event': 'Price change', 'price': '$594,000(+11.2%)'}, {'date': '3/29/2018', 'event': 'Listed for sale', 'price': '$534,000--'}]"
75206,2090403212,32.835386,-96.776163,"$694,610",New construction,"Buildable plan: Home F2, 5300 Glencoe Park, Dallas, TX 75206",4,3,2630,,Single Family,2019,No Data,No Data,No Data,No Data,$264,
75206,2090403211,32.835386,-96.776163,"$697,545",New construction,"Buildable plan: Home G, 5300 Glencoe Park, Dallas, TX 75206",4,3,2630,,Single Family,2019,No Data,No Data,No Data,No Data,$265,
75206,2084727371,32.833787,-96.776594,"$706,630",New construction,"5349 Ellsworth Ave, Dallas, TX 75206",4,3,2630,662876,Single Family,2018,"Forced air, Heat pump",No Data,Detached Garage,"4,573 sqft",$269,"[{'date': '4/26/2019', 'event': 'Listed for sale', 'price': '$706,630--'}]"
75206,26691860,32.814641,-96.77708,"$1,100,000",New construction,"2231 Madera St, Dallas, TX 75206",4,6,4295,1124040,Single Family,2018,Forced air,Central,2 spaces,"7,492 sqft",$256,"[{'date': '5/16/2019', 'event': 'Price change', 'price': '$1,100,000--'}, {'date': '4/26/2019', 'event': 'Listed for sale', 'price': '$1,100,000(-8.3%)'}, {'date': '11/30/2018', 'event': 'Listing removed', 'price': '$1,199,000--'}, {'date': '11/8/2018', 'event': 'Price change', 'price': '$1,199,000(-6%)'}, {'date': '11/1/2018', 'event': 'Price change', 'price': '$1,274,999(-1.8%)'}]"
75206,26703977,32.832842,-96.76942,"$999,000",New construction,"5712 Kenwood Ave, Dallas, TX 75206",5,5,3535,,Single Family,2019,Forced air,Central,2 spaces,"6,185 sqft",$283,
75206,26690205,32.822291,-96.766281,"$875,000",New construction,"5837 Llano Ave, Dallas, TX 75206",5,4,3636,,Single Family,2018,Forced air,Central,2 spaces,"6,969 sqft",$241,
75206,26691615,32.821576,-96.780406,"$1,150,000",New construction,"5247 Miller Ave, Dallas, TX 75206",4,4,3960,933322,Single Family,2019,Forced air,Central,6 spaces,"8,015 sqft",$290,"[{'date': '5/15/2019', 'event': 'Price change', 'price': '$1,150,000(-4.1%)'}, {'date': '3/23/2019', 'event': 'Listed for sale', 'price': '$1,199,000(-7.8%)'}, {'date': '12/27/2017', 'event': 'Listing removed', 'price': '$1,300,000--'}, {'date': '9/28/2017', 'event': 'Listed for sale', 'price': '$1,300,000--'}]"
75206,26690669,32.820525,-96.77827,"$1,150,000",New construction,"5339 Willis Ave, Dallas, TX 75206",4,6,3857,,Single Family,2019,Forced air,Refrigeration,1 space,"7,797 sqft",$298,
75206,26690848,32.817943,-96.77508,"$389,000",For sale by owner,"5454 Bonita Ave, Dallas, TX 75206",2,2,1800,469225,Single Family,1926,Other,Central,2 spaces,"7,200 sqft",$216,"[{'date': '5/13/2019', 'event': 'Price change', 'price': '$389,000(-2.3%)'}, {'date': '5/11/2019', 'event': 'Price change', 'price': '$398,000(-0.3%)'}, {'date': '3/9/2019', 'event': 'Listed for sale', 'price': '$399,000--'}]"
75206,26690216,32.82358,-96.763342,"$425,000",For sale by owner,"6006 Goodwin Ave, Dallas, TX 75206",3,1,1302,,Single Family,1935,Other,Central,2 spaces,"7,000 sqft",$326,
75206,26690890,32.816564,-96.776606,"$1,199,990",New construction,"5419 Richmond Ave, Dallas, TX 75206",5,6,4684,1068950,Single Family,2019,Forced air,"Central, Refrigeration",Attached Garage,"7,187 sqft",$256,"[{'date': '2/22/2019', 'event': 'Listed for sale', 'price': '$1,199,990(+224.3%)'}, {'date': '3/8/2018', 'event': 'Sold', 'price': '----'}, {'date': '3/8/2018', 'event': 'Listing removed', 'price': '$370,000--'}, {'date': '2/16/2018', 'event': 'Pending sale', 'price': '$370,000--'}, {'date': '2/1/2018', 'event': 'Listed for sale', 'price': '$370,000(-1.3%)'}]"
75206,2085854088,32.834504,-96.77561,"$697,545",New construction,"5424 Anita St, Dallas, TX 75206",4,3,2630,658736,Single Family,2018,"Forced air, Heat pump",No Data,Detached Garage,"4,878 sqft",$265,"[{'date': '2/14/2019', 'event': 'Listed for sale', 'price': '$697,545--'}]"
75206,26691775,32.816695,-96.777878,"$1,099,000",New construction,"5318 Belmont Ave, Dallas, TX 75206",4,45,4083,967720,Single Family,2018,Forced air,Refrigeration,Attached Garage,"7,492 sqft",$269,
75206,26695575,32.824233,-96.782979,"$899,900",New construction,"5138 Vanderbilt Ave, Dallas, TX 75206",4,3,3100,,Single Family,2019,Forced air,Central,2 spaces,"7,230 sqft",$290,
75206,2086432716,32.815996,-96.786902,"$1,050,000",New construction,"4918 Milam St, Dallas, TX 75206",3,35,3000,766865,Single Family,2019,Forced air,No Data,No Data,No Data,$350,"[{'date': '4/25/2019', 'event': 'Price change', 'price': '$1,050,000(-2.3%)'}, {'date': '1/10/2019', 'event': 'Listed for sale', 'price': '$1,075,000--'}]"
75206,26695187,32.824787,-96.771154,"$1,195,000",New construction,"5627 Vanderbilt Ave, Dallas, TX 75206",4,4,3656,910047,Single Family,2018,Forced air,Central,2 spaces,"7,230 sqft",$327,"[{'date': '11/1/2018', 'event': 'Listed for sale', 'price': '$1,195,000(+198.8%)'}, {'date': '1/20/2018', 'event': 'Listing removed', 'price': '$399,900--'}, {'date': '11/3/2017', 'event': 'Listed for sale', 'price': '$399,900--'}, {'date': '10/25/2016', 'event': 'Listing removed', 'price': '$2,100(+5%)'}, {'date': '10/11/2015', 'event': 'Sold', 'price': '----'}]"
75206,26691826,32.814496,-96.775091,"$985,000",New construction,"2007 McMillan Ave, Dallas, TX 75206",4,4,3520,965638,Single Family,2018,Forced air,Central,2 spaces,"7,492 sqft",$280,"[{'date': '3/7/2019', 'event': 'Price change', 'price': '$985,000(-3.9%)'}, {'date': '12/7/2018', 'event': 'Price change', 'price': '$1,025,000(-4.7%)'}, {'date': '9/8/2018', 'event': 'Listed for sale', 'price': '$1,075,000(+9.1%)'}, {'date': '7/3/2018', 'event': 'Listing removed', 'price': '$985,000--'}, {'date': '3/8/2018', 'event': 'Listed for sale', 'price': '$985,000(+146.3%)'}]"
75206,26695107,32.824541,-96.763997,"$875,000",New construction,"5942 Vanderbilt Ave, Dallas, TX 75206",4,5,4023,895707,Single Family,2017,Forced air,Central,2 spaces,"8,712 sqft",$217,"[{'date': '12/5/2018', 'event': 'Price change', 'price': '$875,000(-7.9%)'}, {'date': '7/6/2018', 'event': 'Listed for sale', 'price': '$950,000(-1.5%)'}, {'date': '10/27/2017', 'event': 'Listing removed', 'price': '$964,000--'}, {'date': '6/5/2017', 'event': 'Price change', 'price': '$964,000(-1.5%)'}, {'date': '3/15/2017', 'event': 'Listed for sale', 'price': '$979,000--'}]"
75206,26691792,32.817179,-96.778211,"$1,099,000",New construction,"5323 Belmont Ave, Dallas, TX 75206",2,1,1116,1085485,Single Family,1926,Forced air,Central,2 spaces,"7,501 sqft",$985,"[{'date': '4/29/2019', 'event': 'Listed for sale', 'price': '$1,099,000(-4.4%)'}, {'date': '3/19/2019', 'event': 'Listing removed', 'price': '$1,149,900--'}, {'date': '10/19/2018', 'event': 'Price change', 'price': '$1,149,900(-4.2%)'}, {'date': '9/10/2018', 'event': 'Price change', 'price': '$1,199,900(-2%)'}, {'date': '8/16/2018', 'event': 'Price change', 'price': '$1,225,000(-1.6%)'}]"
75206,2095833703,32.816297,-96.785812,"$659,000",New construction,"2802 Lee St, Dallas, TX 75206",3,4,2444,627376,Single Family,2018,Forced air,No Data,Attached Garage,"6,141 sqft",$270,"[{'date': '5/17/2019', 'event': 'Price change', 'price': '$659,000(-2.9%)'}, {'date': '5/3/2019', 'event': 'Price change', 'price': '$679,000(-0.9%)'}, {'date': '4/21/2019', 'event': 'Price change', 'price': '$685,000(-2%)'}, {'date': '3/14/2019', 'event': 'Price change', 'price': '$699,000(-1.4%)'}, {'date': '3/7/2019', 'event': 'Price change', 'price': '$709,000(-1.4%)'}]"
75206,2096331477,32.834342,-96.7775,"$705,050",New construction,"5333 Anita St, Dallas, TX 75206",4,3,2630,,Single Family,2018,"Forced air, Heat pump",No Data,Detached Garage,No Data,$268,
75205,245230260,32.845001,-96.81149,"$1,349,900",New construction,"4419 University Blvd # A, Dallas, TX 75205",4,5,3859,,Single Family,2018,Forced air,No Data,Attached Garage,"3,833 sqft",$350,
75205,245229846,32.845001,-96.81149,"$1,349,900",New construction,"4419 University Blvd # B, Dallas, TX 75205",4,5,3887,939086,Single Family,2018,Forced air,No Data,Attached Garage,"3,833 sqft",$347,"[{'date': '5/20/2019', 'event': 'Listed for sale', 'price': '$1,349,900--'}]"
75205,27201006,32.835209,-96.781799,"$3,200,000",Coming soon: May 31.,"3101 Drexel Dr, Dallas, TX 75205",5,7,6102,2434750,Single Family,2014,Forced air,Central,2 spaces,"10,430 sqft",$524,"[{'date': '5/2/2019', 'event': 'Coming Soon', 'price': '$3,200,000--'}]"
75205,27197996,32.841332,-96.811406,"$4,795,000",New construction,"4401 Stanhope St, Dallas, TX 75205",6,8,7528,,Single Family,2017,Forced air,Central,2 spaces,"10,802 sqft",$637,
75205,244055328,32.845204,-96.810773,"$1,349,900",New construction,"4417 University Blvd # A, Dallas, TX 75205",4,5,3887,,Single Family,2018,Forced air,No Data,Attached Garage,"3,833 sqft",$347,
75205,245230064,32.845204,-96.810773,"$1,349,900",New construction,"4417 University Blvd # B, Dallas, TX 75205",4,5,3859,,Single Family,2018,Forced air,No Data,Detached Garage,"3,833 sqft",$350,
75205,27202488,32.834234,-96.809965,"$1,450,000",For sale by owner,"4356 Edmondson Ave, Dallas, TX 75205",4,4,3714,1527412,Single Family,1926,Other,Central,2 spaces,"8,460 sqft",$390,"[{'date': '4/19/2019', 'event': 'Back on market', 'price': '$1,450,000--'}, {'date': '4/18/2019', 'event': 'Pending sale', 'price': '$1,450,000--'}, {'date': '4/4/2019', 'event': 'Listed for sale', 'price': '$1,450,000--'}]"
75205,2137762095,32.819597,-96.796554,"$1,500,000",New construction,"3617 Springbrook St, Dallas, TX 75205",3,4,3638,1148268,Single Family,2019,Forced air,Central,2 spaces,"7,666 sqft",$412,"[{'date': '5/13/2019', 'event': 'Price change', 'price': '$1,500,000(-3.2%)'}, {'date': '3/27/2019', 'event': 'Listed for sale', 'price': '$1,550,000--'}, {'date': '1/17/2013', 'event': 'Listing removed', 'price': '$1,675--'}, {'date': '12/26/2012', 'event': 'Price change', 'price': '$1,675(-2.9%)'}, {'date': '12/17/2012', 'event': 'Price change', 'price': '$1,725(+1.5%)'}]"
75205,27202047,32.829079,-96.815163,"$3,495,000",New construction,"4557 Belclaire Ave, Dallas, TX 75205",5,6,5790,3532132,Single Family,2019,Forced air,Central,2 spaces,"8,145 sqft",$604,"[{'date': '2/28/2019', 'event': 'Listed for sale', 'price': '$3,495,000(+223.9%)'}, {'date': '8/1/2018', 'event': 'Sold', 'price': '$1,079,000--'}, {'date': '7/22/2018', 'event': 'Pending sale', 'price': '$1,079,000--'}, {'date': '7/10/2018', 'event': 'Listed for sale', 'price': '$1,079,000--'}]"
75205,27201962,32.828176,-96.810978,"$4,475,000",New construction,"4430 Arcady Ave, Dallas, TX 75205",5,9,7742,4636988,Single Family,2016,Forced air,Central,5 spaces,0.3 acres,$578,"[{'date': '10/12/2018', 'event': 'Price change', 'price': '$4,475,000(-3.8%)'}, {'date': '9/4/2018', 'event': 'Price change', 'price': '$4,650,000(-2.1%)'}, {'date': '6/19/2018', 'event': 'Price change', 'price': '$4,750,000(-4.7%)'}, {'date': '4/9/2018', 'event': 'Listed for sale', 'price': '$4,985,000(-4.1%)'}, {'date': '1/1/2018', 'event': 'Listing removed', 'price': '$5,199,000--'}]"
75206,2090403211,32.835386,-96.776163,"$697,545",New construction,"Buildable plan: Home G, 5300 Glencoe Park, Dallas, TX 75206",4,3,2630,,Single Family,2019,No Data,No Data,No Data,No Data,$265,
75206,2090403211,32.835386,-96.776163,"$697,545",New construction,"Buildable plan: Home G, 5300 Glencoe Park, Dallas, TX 75206",4,3,2630,,Single Family,2019,No Data,No Data,No Data,No Data,$265,
75206,2090403210,32.835386,-96.776163,"$690,375",New construction,"Buildable plan: Home I, 5300 Glencoe Park, Dallas, TX 75206",4,2,2553,,Single Family,2019,No Data,No Data,No Data,No Data,$270,
75206,2090403203,32.835386,-96.776163,"$547,200",New construction,"Buildable plan: Home D, 5300 Glencoe Park, Dallas, TX 75206",3,2,1847,573451,Single Family,2019,No Data,No Data,No Data,No Data,$296,"[{'date': '4/20/2019', 'event': 'Price change', 'price': '$547,200(-7.9%)'}, {'date': '10/19/2018', 'event': 'Price change', 'price': '$594,000(+11.2%)'}, {'date': '3/29/2018', 'event': 'Listed for sale', 'price': '$534,000--'}]"
75206,2090403211,32.835386,-96.776163,"$697,545",New construction,"Buildable plan: Home G, 5300 Glencoe Park, Dallas, TX 75206",4,3,2630,682934,Single Family,2019,No Data,No Data,No Data,No Data,$265,
20105,VA,2084820550,38958900,-77594300,"$759,990",New construction,"Buildable plan: WESTON, Westbury Glen   Westbury Glen Estates, Aldie, VA 20105",4,5,4429,771573,Single Family,2019,No Data,No Data,3 spaces,No Data,$172,"[{'date': '4/20/2019', 'event': 'Listed for sale', 'price': '$759,990--'}]"
